City_ID,City,Lat,Lng,Max Temp,Humidity,Cloudiness,Wind Speed,Country,Date
0,msanga,-6.05,36.0333,22.25,85,48,2.23,TZ,1712770041
1,iqaluit,63.7506,-68.5145,-1.15,63,75,1.54,CA,1712770041
2,hawaiian paradise park,19.5933,-154.9731,19.46,98,100,0.45,US,1712770041
3,blackmans bay,-43.0167,147.3167,10.29,86,75,0.45,AU,1712770042
4,keflavik,64.0049,-22.5624,6.95,65,75,8.23,IS,1712770042
5,buala,-8.145,159.5921,26.91,82,91,1.16,SB,1712770042
6,uray,60.1247,64.7758,-0.63,66,100,0.89,RU,1712770042
7,lebu,-37.6167,-73.65,12.92,56,100,1.69,CL,1712770042
8,nadym,65.5333,72.5167,-23.91,96,27,2.0,RU,1712770042
9,sisimiut,66.9395,-53.6735,-4.39,65,100,1.2,GL,1712770043
10,nar'yan-mar,67.6713,53.087,-13.83,96,44,2.68,RU,1712770043
11,adamstown,-25.066,-130.1015,23.74,81,100,4.08,PN,1712770043
12,waitangi,-43.9535,-176.5597,15.46,94,61,3.58,NZ,1712770043
13,carnarvon,-24.8667,113.6333,24.83,55,15,6.59,AU,1712770043
14,sinabang,2.4803,96.3801,26.52,86,100,0.66,ID,1712770044
15,port elizabeth,-33.918,25.5701,15.61,93,100,4.12,ZA,1712769866
16,west island,-12.1568,96.8225,26.99,69,83,4.12,CC,1712770044
17,happy valley-goose bay,53.3168,-60.3315,2.17,51,20,2.57,CA,1712770044
18,invercargill,-46.4,168.35,12.23,98,100,1.79,NZ,1712770044
19,bredasdorp,-34.5322,20.0403,16.02,69,93,6.26,ZA,1712770045
20,puerto natales,-51.7236,-72.4875,10.25,53,0,7.72,CL,1712770045
21,novyy urgal,51.0736,132.5642,-1.26,81,92,0.7,RU,1712770045
22,constantia,44.1833,28.65,14.38,76,0,3.05,RO,1712769779
23,tura,25.5198,90.2201,24.91,28,80,2.02,IN,1712770046
24,veinticinco de mayo,-35.4323,-60.1727,16.1,59,91,1.79,AR,1712770046
25,tipton,52.5296,-2.0677,12.68,89,100,1.34,GB,1712769938
26,myitkyina,25.3833,97.4,24.54,52,66,2.59,MM,1712770046
27,edinburgh of the seven seas,-37.0676,-12.3116,18.25,81,42,4.51,SH,1712769921
28,kralendijk,12.15,-68.2667,30.99,66,40,8.23,BQ,1712770047
29,broken hill,-31.95,141.4333,11.27,61,0,4.07,AU,1712770047
30,klyuchi,52.2667,79.1667,3.5,85,92,1.56,RU,1712770047
31,port mathurin,-19.6833,63.4167,26.95,77,10,6.13,MU,1712770047
32,weno,7.4515,151.8468,26.97,94,100,3.6,FM,1712770048
33,albany,42.6001,-73.9662,13.63,78,100,0.89,US,1712769839
34,goundam,16.4145,-3.6708,41.88,8,36,3.1,ML,1712770048
35,port-aux-francais,-49.35,70.2167,7.77,99,100,5.09,TF,1712770048
36,puerto ayora,-0.7393,-90.3518,28.98,89,14,3.58,EC,1712770048
37,nagqu,31.5,92.0,-5.63,45,68,1.03,CN,1712770048
38,bethel,41.3712,-73.414,19.75,54,40,5.14,US,1712769994
39,thompson,55.7435,-97.8558,10.09,50,75,4.12,CA,1712770049
40,yinchuan,38.4681,106.2731,15.95,22,0,4.48,CN,1712770049
41,georgetown,5.4112,100.3354,28.3,86,20,1.54,MY,1712769876
42,prado,-17.3411,-39.2208,28.56,69,35,3.5,BR,1712769788
43,karymskoye,51.6167,114.35,5.72,58,75,1.8,RU,1712770050
44,dudinka,69.4058,86.1778,-31.29,100,80,1.79,RU,1712770050
45,pariaman,-0.619,100.12,26.03,89,100,4.88,ID,1712770050
46,tshabong,-26.05,22.45,22.72,33,0,2.87,BW,1712770050
47,coquimbo,-29.9533,-71.3436,14.85,88,100,3.6,CL,1712769720
48,kharp,66.8014,65.8081,-25.72,95,23,2.63,RU,1712770051
49,ampanihy,-24.7,44.75,24.78,71,97,5.77,MG,1712770051
50,berezovyy,51.6667,135.7,1.55,76,72,2.09,RU,1712770051
51,vilyuchinsk,52.9306,158.4028,2.15,75,96,16.79,RU,1712770051
52,vorgashor,67.5833,63.95,-21.78,100,94,2.0,RU,1712770051
53,tofol,5.3248,163.0078,28.3,80,91,9.0,FM,1712770052
54,grytviken,-54.2811,-36.5092,2.6,85,64,5.34,GS,1712770052
55,ta`u,-14.2336,-169.5144,29.03,79,58,4.59,AS,1712770052
56,tommot,58.9564,126.2925,-10.27,98,66,1.04,RU,1712770052
57,badger,64.8,-147.5333,-0.16,74,20,0.45,US,1712770052
58,sawakin,19.1059,37.3321,26.62,57,37,4.41,SD,1712770053
59,puerto san jose,13.9256,-90.8244,32.44,54,55,4.74,GT,1712770053
60,murashi,59.3999,48.9615,2.3,87,87,0.22,RU,1712770053
61,cabo san lucas,22.8909,-109.9124,27.01,50,0,4.02,MX,1712769934
62,ancud,-41.8697,-73.8203,13.61,54,0,3.27,CL,1712770053
63,afaahiti,-17.75,-149.2833,26.93,82,28,6.79,PF,1712770054
64,udachny,66.4167,112.4,-21.97,87,77,9.9,RU,1712770054
65,konarka,19.9,86.1167,28.22,74,11,3.73,IN,1712770054
66,yellowknife,62.456,-114.3525,0.23,90,100,3.6,CA,1712769933
67,salym,60.0625,71.4789,-8.32,90,100,1.74,RU,1712770055
68,beichengqu,40.4394,113.1536,11.61,38,27,1.39,CN,1712770055
69,plettenberg bay,-34.0527,23.3716,15.31,86,98,4.01,ZA,1712770055
70,san luis de la loma,17.2706,-100.8939,30.13,51,99,4.22,MX,1712770055
71,hasaki,35.7333,140.8333,6.22,59,67,2.12,JP,1712770055
72,papatowai,-46.5619,169.4708,12.39,99,100,1.27,NZ,1712770056
73,kuching,1.55,110.3333,27.23,94,20,0.89,MY,1712769957
74,maun,-19.9833,23.4167,24.26,31,69,2.85,BW,1712770056
75,nova vicosa,-17.8919,-39.3719,28.8,62,56,3.01,BR,1712770056
76,khorixas,-20.3667,14.9667,28.49,17,0,4.78,NA,1712770056
77,ushuaia,-54.8,-68.3,8.79,66,40,13.38,AR,1712769826
78,taitung city,22.7583,121.1444,22.89,82,88,2.03,TW,1712770057
79,tchintabaraden,15.8969,5.7985,38.59,12,38,7.09,NE,1712770057
80,sovetskaya,44.7769,41.1722,13.81,74,100,3.24,RU,1712770057
81,karratha,-20.7377,116.8463,27.13,59,48,7.02,AU,1712770057
82,hermanus,-34.4187,19.2345,15.45,74,50,8.1,ZA,1712770058
83,sitka,57.0531,-135.33,6.94,65,100,5.14,US,1712770058
84,prince george,53.9166,-122.753,4.23,60,0,3.6,CA,1712769949
85,fale old settlement,-9.3852,-171.2468,29.92,76,54,5.25,TK,1712769977
86,piacabucu,-10.4056,-36.4344,29.9,66,95,4.01,BR,1712770059
87,kyabe,9.4515,18.9449,37.64,12,32,1.8,TD,1712770059
88,margaret river,-33.95,115.0667,15.53,64,0,6.57,AU,1712770059
89,lospalos,-8.5186,127.0025,21.36,88,48,1.39,TL,1712770059
90,saipan,15.1355,145.701,27.39,69,40,6.69,MP,1712770059
91,flekkefjord,58.2971,6.6607,7.75,81,26,4.52,NO,1712770060
92,qina,26.1642,32.7267,25.12,21,61,5.21,EG,1712770060
93,torghay,49.6339,63.4981,11.7,60,100,4.47,KZ,1712770060
94,bilibino,68.0546,166.4372,-23.39,99,92,1.69,RU,1712770060
95,port saint john's,-31.6229,29.5448,20.23,74,60,10.36,ZA,1712770060
96,eskisehir,39.7767,30.5206,14.93,44,0,6.17,TR,1712769971
97,komlo,46.1928,18.2649,13.69,78,100,5.68,HU,1712770061
98,vila franca do campo,37.7167,-25.4333,19.23,99,100,4.82,PT,1712770061
99,katima mulilo,-17.5,24.2667,20.59,93,100,1.03,NA,1712770061
100,longyearbyen,78.2186,15.6401,-14.09,72,0,4.12,SJ,1712770061
101,engel's,51.5,46.1167,15.69,75,3,6.24,RU,1712769904
102,pionerskiy,54.9508,20.2275,10.08,84,89,11.19,RU,1712770062
103,glace bay,46.1969,-59.957,6.26,56,40,8.23,CA,1712770062
104,neustrelitz,53.3667,13.0833,13.28,62,86,2.86,DE,1712770062
105,olonkinbyen,70.9221,-8.7187,-6.0,79,100,5.63,SJ,1712770062
106,san patricio,28.017,-97.5169,23.81,39,1,12.51,US,1712770063
107,colby,39.3958,-101.0524,17.12,33,0,11.62,US,1712770063
108,paraparaumu,-40.9167,175.0167,18.47,75,96,5.35,NZ,1712770063
109,tomatlan,19.9333,-105.25,29.39,40,0,2.54,MX,1712769833
110,kayes,14.0,-11.0,42.25,12,1,3.41,ML,1712770063
111,wailua homesteads,22.0669,-159.378,22.64,82,0,4.12,US,1712770064
112,sinan,34.8262,126.1086,12.06,80,100,3.81,KR,1712770064
113,miasskoye,55.2784,61.8905,4.92,79,100,1.95,RU,1712770064
114,mareeba,-17.0,145.4333,22.4,90,88,0.89,AU,1712770064
115,uturoa,-16.7333,-151.4333,28.77,77,77,6.99,PF,1712770064
116,mount pearl,47.5166,-52.7813,1.75,66,75,7.72,CA,1712770065
117,punasa,22.2333,76.4,27.29,51,68,5.57,IN,1712770065
118,guantanamo,20.1444,-75.2092,31.76,35,1,5.88,CU,1712770065
119,la passe,45.5549,-0.8967,16.13,76,56,3.78,FR,1712770065
120,onguday,50.75,86.15,4.13,90,100,1.22,RU,1712770065
121,howrah,22.5892,88.3103,30.61,74,20,0.0,IN,1712770066
122,porto novo,6.4965,2.6036,31.9,65,93,3.98,BJ,1712770066
123,kinablangan,7.6947,126.5503,24.5,82,72,1.95,PH,1712770066
124,bom jesus,-9.0744,-44.3586,35.03,37,39,0.28,BR,1712770066
125,waddan,29.1614,16.139,25.46,12,0,5.05,LY,1712770066
126,kargil,34.5667,76.1,-8.29,87,97,1.98,IN,1712770066
127,port alfred,-33.5906,26.891,15.1,97,100,1.79,ZA,1712770067
128,souillac,-20.5167,57.5167,26.21,83,75,5.66,MU,1712770067
129,la manga del mar menor,37.6413,-0.7165,21.23,48,0,7.2,ES,1712770067
130,dvubratskiy,45.2389,39.805,16.33,66,95,5.42,RU,1712770067
131,siwa oasis,29.2041,25.5195,23.93,24,0,3.64,EG,1712770068
132,micheweni,-4.9667,39.8333,28.29,83,81,4.68,TZ,1712770068
133,avarua,-21.2078,-159.775,27.03,89,75,7.2,CK,1712770068
134,el calafate,-50.3408,-72.2768,7.49,61,21,2.25,AR,1712770068
135,prince rupert,54.3161,-130.3201,5.83,88,100,10.8,CA,1712770068
136,chui,-33.6971,-53.4616,20.21,66,92,6.81,UY,1712770022
137,kristiansund,63.1115,7.732,5.36,87,75,12.35,NO,1712770069
138,calderitas,18.55,-88.25,31.06,70,0,5.66,MX,1712770069
139,noumea,-22.2763,166.4572,24.99,87,98,2.98,NC,1712769970
140,usogorsk,63.4106,48.6872,-1.3,96,100,2.02,RU,1712770069
141,saint-jean-de-monts,46.7833,-2.0667,14.44,16,100,5.06,FR,1712770070
142,mugia,43.1041,-9.2179,18.84,64,100,4.44,ES,1712770070
143,queenstown,-31.8976,26.8753,11.87,78,47,3.54,ZA,1712770070
144,tidjikja,18.5564,-11.4271,38.76,9,0,4.64,MR,1712770070
145,igarka,67.4667,86.5833,-24.43,96,40,4.47,RU,1712770070
146,bengkulu,-3.8004,102.2655,24.75,89,100,1.54,ID,1712770071
147,jamestown,42.097,-79.2353,15.01,91,100,3.6,US,1712769934
148,botou,38.0667,116.5667,13.23,73,4,2.47,CN,1712770071
149,stanley,54.868,-1.6985,11.01,90,40,5.66,GB,1712769860
150,nemuro,43.3236,145.575,2.08,81,0,3.54,JP,1712770071
151,tiksi,71.6872,128.8694,-13.68,97,100,4.62,RU,1712770071
152,cottage grove,44.8277,-92.9438,19.75,40,0,5.66,US,1712769789
153,nova sintra,14.8667,-24.7167,22.75,76,3,7.79,CV,1712770072
154,whitehorse,60.7161,-135.0538,0.57,64,100,4.12,CA,1712770072
155,dhangadhi,28.7079,80.5961,25.35,11,0,1.84,NP,1712770072
156,plattsburgh,44.6995,-73.4529,17.94,69,100,3.13,US,1712769923
157,east ballina,-28.8667,153.5833,12.67,75,3,4.87,AU,1712770073
158,mandalgovi,45.7625,106.2708,9.26,32,82,4.21,MN,1712770073
159,fort st. john,56.2499,-120.8529,4.94,45,40,4.12,CA,1712769931
160,aasiaat,68.7098,-52.8699,-7.73,75,94,3.04,GL,1712770073
161,shimoda,34.6667,138.95,8.95,75,64,3.39,JP,1712770073
162,rio grande,-32.035,-52.0986,25.06,72,82,7.39,BR,1712770040
163,ahfir,34.9537,-2.1003,21.34,38,36,3.59,MA,1712770074
164,la sarre,48.8002,-79.1996,10.43,58,28,4.99,CA,1712770074
165,lihue,21.9789,-159.3672,22.98,77,0,4.12,US,1712769805
166,hithadhoo,-0.6,73.0833,29.83,69,100,3.31,MV,1712770074
167,parkano,62.0167,23.0167,7.92,82,100,5.49,FI,1712770075
168,punta arenas,-53.15,-70.9167,9.06,61,75,12.86,CL,1712770075
169,anadyr,64.75,177.4833,-10.72,85,75,5.0,RU,1712770075
170,sao tome,0.3365,6.7273,29.23,75,99,3.34,ST,1712770075
171,kapuskasing,49.4169,-82.4331,9.05,76,75,5.14,CA,1712770075
172,arraial do cabo,-22.9661,-42.0278,28.98,78,20,6.17,BR,1712770075
173,nuuk,64.1835,-51.7216,-3.66,86,75,3.09,GL,1712770076
174,bandon,51.7469,-8.7425,12.77,95,100,8.81,IE,1712770076
175,enewetak,11.3474,162.3373,27.2,81,100,9.65,MH,1712770076
176,zapala,-38.8992,-70.0544,8.78,30,100,8.79,AR,1712770076
177,barranca,-10.75,-77.7667,23.9,74,43,3.71,PE,1712769945
178,canutama,-6.5339,-64.3831,31.49,68,50,1.59,BR,1712770077
179,bhamo,24.2667,97.2333,24.58,39,34,0.7,MM,1712770077
180,tolanaro,-25.0319,46.9987,25.04,88,0,2.06,MG,1712770077
181,bumba,2.1833,22.4667,23.17,90,84,0.57,CD,1712770077
182,muroto-misakicho,33.2833,134.15,15.54,71,99,5.45,JP,1712770077
183,qaqortoq,60.7167,-46.0333,-1.78,72,6,1.65,GL,1712770077
184,fisterra,42.9049,-9.2629,18.75,68,100,6.65,ES,1712770078
185,deqen,29.9618,90.7188,0.41,47,72,0.68,CN,1712770078
186,naranjal,-2.6667,-79.6167,29.0,79,84,1.25,EC,1712770078
187,khusropur,25.4667,85.3833,30.02,14,20,1.93,IN,1712770078
188,pailon,-17.65,-62.75,31.82,78,99,4.04,BO,1712770078
189,kodiak,57.79,-152.4072,-2.27,80,75,6.17,US,1712769848
190,papao,-17.75,-149.55,27.82,80,64,7.85,PF,1712770079
191,huilong,31.8111,121.655,12.62,88,100,3.9,CN,1712770079
192,benidorm,38.5382,-0.131,21.81,66,9,3.89,ES,1712770079
193,susuman,62.7833,148.1667,-21.68,100,68,0.45,RU,1712770079
194,llerena,38.2354,-6.0739,20.24,55,33,3.53,ES,1712770080
195,cambridge,43.3601,-80.3127,17.68,43,0,5.66,CA,1712769842
196,oranjemund,-28.55,16.4333,16.37,79,0,8.9,NA,1712770080
197,ende,-8.8432,121.6623,24.11,90,94,1.24,ID,1712770080
198,taltal,-25.4,-70.4833,18.88,76,99,1.82,CL,1712770080
199,petropavlovsk-kamchatsky,53.0452,158.6483,1.33,96,75,3.0,RU,1712769887
200,acajutla,13.5928,-89.8275,30.91,60,39,4.49,SV,1712770081
201,encrucijada,22.6169,-79.8711,31.31,48,40,4.12,CU,1712770081
202,balsas,-7.5325,-46.0356,32.12,57,78,1.4,BR,1712769506
203,dosso,13.049,3.1937,38.35,19,89,2.54,NE,1712770081
204,arkhangel'sk,64.5401,40.5433,7.06,76,40,3.0,RU,1712769958
205,atafu village,-8.5421,-172.5159,29.92,76,67,4.67,TK,1712769977
206,frenchville,-23.3442,150.5507,12.52,76,0,0.0,AU,1712770082
207,kingston,17.997,-76.7936,31.53,67,75,8.23,JM,1712770052
208,ribeira grande,38.5167,-28.7,16.54,100,75,8.49,PT,1712770082
209,pechora,65.1472,57.2244,-7.86,95,97,1.34,RU,1712770082
210,al bawiti,28.3492,28.8659,21.66,31,0,3.97,EG,1712770083
211,nazyvayevsk,55.5698,71.3529,-1.05,91,100,1.93,RU,1712770083
212,haiku-pauwela,20.9219,-156.3051,23.36,82,20,1.79,US,1712770083
213,ilulissat,69.2167,-51.1,-4.99,58,40,2.06,GL,1712770083
214,al fujairah city,25.1164,56.3414,32.07,27,0,7.72,AE,1712770083
215,constitucion,-35.3333,-72.4167,17.63,45,31,4.05,CL,1712769825
216,macau,22.2006,113.5461,23.89,88,20,6.17,MO,1712770084
217,creel,27.75,-107.6333,13.13,13,0,3.9,MX,1712770084
218,aparecida do taboado,-20.0867,-51.0936,29.65,60,32,1.64,BR,1712770084
219,katsuren-haebaru,26.3369,127.8719,21.01,79,20,4.63,JP,1712770084
220,north bend,43.4065,-124.2243,13.98,76,0,0.0,US,1712770085
221,saint-francois,46.4154,3.9054,12.69,49,0,3.6,FR,1712770085
222,cova figueira,14.8905,-24.2934,18.09,74,5,8.98,CV,1712770085
223,vallenar,-28.5708,-70.7581,26.13,34,85,2.32,CL,1712770085
224,sao gabriel,-30.3364,-54.32,26.65,58,29,3.97,BR,1712770085
225,tulum,20.2167,-87.4667,30.66,62,83,5.66,MX,1712770034
226,tazovsky,67.4667,78.7,-29.4,100,33,2.58,RU,1712770086
227,alofi,-19.0595,-169.9187,22.94,100,100,1.03,NU,1712769959
228,linfen,36.0889,111.5189,16.43,59,79,1.58,CN,1712770086
229,tvoroyri,61.5556,-6.8111,6.68,90,100,11.17,FO,1712770086
230,hamilton,39.1834,-84.5333,16.71,94,100,3.6,US,1712769833
231,mweka,-4.85,21.5667,24.78,80,89,0.69,CD,1712770087
232,montmagny,48.9734,2.3469,17.17,38,0,3.09,FR,1712770087
233,ocean shores,46.9737,-124.1563,10.57,88,0,3.09,US,1712769788
234,kiiminki,65.1314,25.7974,6.81,95,100,5.62,FI,1712770087
235,iskateley,67.6803,53.1512,-13.88,96,45,2.68,RU,1712770088
236,opochka,56.7105,28.6617,19.07,72,100,4.22,RU,1712769861
237,businga,3.3333,20.8833,24.27,86,56,2.32,CD,1712770088
238,praia da vitoria,38.7333,-27.0667,19.14,88,75,7.83,PT,1712770088
239,sao felix do xingu,-6.6447,-51.995,27.71,76,100,1.92,BR,1712770088
240,kapa'a,22.0752,-159.319,23.39,82,0,4.12,US,1712770088
241,nikolayevsk-on-amure,53.1406,140.73,-2.1,87,8,1.34,RU,1712770089
242,altay,47.8667,88.1167,5.12,82,100,1.02,CN,1712770089
243,grand falls-windsor,48.9332,-55.6649,1.95,52,99,2.24,CA,1712770089
244,acapulco de juarez,16.8634,-99.8901,27.9,74,100,4.63,MX,1712769860
245,asahikawa,43.7678,142.3703,0.56,69,5,5.66,JP,1712770089
246,sitangkai,4.6628,119.3928,28.29,70,100,1.37,PH,1712770090
247,barreirinha,-2.7933,-57.07,27.85,82,100,1.1,BR,1712770090
248,hammerfest,70.6634,23.6821,4.25,81,75,5.14,NO,1712770090
249,luquillo,18.3725,-65.7166,29.33,72,100,5.66,PR,1712770090
250,warrnambool,-38.3833,142.4833,14.66,75,100,4.61,AU,1712770090
251,mount isa,-20.7333,139.5,16.87,42,9,4.63,AU,1712770090
252,chibougamau,49.9168,-74.3659,6.79,61,75,5.14,CA,1712770091
253,talnakh,69.4865,88.3972,-30.45,99,74,2.25,RU,1712770091
254,murzuq,25.9155,13.9184,29.49,12,88,4.69,LY,1712769821
255,el alto,-4.2714,-81.2147,29.81,68,76,4.38,PE,1712770091
256,baki,-7.6128,110.7839,24.33,95,100,1.79,ID,1712770091
257,mponela,-13.5319,33.7401,19.74,94,70,2.1,MW,1712770092
258,poronaysk,49.2167,143.1167,1.84,71,40,4.21,RU,1712770092
259,caleta de carquin,-11.0925,-77.6267,23.89,77,54,3.42,PE,1712770092
260,port lincoln,-34.7333,135.8667,15.69,77,59,4.26,AU,1712770092
261,el porvenir,13.7617,-87.3458,31.63,28,100,2.82,HN,1712770092
262,leh,34.1667,77.5833,-11.84,57,98,2.78,IN,1712770093
263,homer,59.6425,-151.5483,-1.24,74,0,2.68,US,1712770093
264,tongchuanshi,35.0806,109.0897,12.79,80,64,1.56,CN,1712770093
265,phongsali,21.6833,102.1058,19.04,69,40,0.71,LA,1712770093
266,miri,4.4148,114.0089,26.08,94,40,1.03,MY,1712770093
267,yulinshi,38.2906,109.7494,14.01,49,0,3.49,CN,1712770094
268,artesia,33.8658,-118.0831,26.61,41,0,1.54,US,1712770094
269,benghazi,32.1167,20.0667,18.51,60,1,4.87,LY,1712770094
270,kailua-kona,19.6406,-155.9956,22.98,82,20,2.06,US,1712769933
271,kulhudhuffushi,6.6221,73.07,29.67,68,71,2.02,MV,1712770095
272,reyes,-14.3167,-67.3833,31.98,70,40,4.12,BO,1712770095
273,belmonte,-15.8631,-38.8828,29.03,69,86,2.96,BR,1712770095
274,pisco,-13.7,-76.2167,26.12,78,0,5.14,PE,1712769844
275,luderitz,-26.6481,15.1594,20.21,65,0,9.28,NA,1712770096
276,ondjiva,-17.0667,15.7333,31.02,33,0,1.03,AO,1712770096
277,gandajika,-6.75,23.95,22.69,88,100,0.73,CD,1712770096
278,saint-philippe,-21.3585,55.7679,25.77,83,91,5.41,RE,1712770096
279,chos malal,-37.3781,-70.2709,14.73,30,93,6.07,AR,1712770096
280,tangalle,6.024,80.7911,27.15,76,100,4.03,LK,1712770097
281,blankenberge,51.3131,3.1323,15.21,45,92,2.24,BE,1712770097
282,tazacorte,28.629,-17.9293,23.97,75,20,5.66,ES,1712770097
283,lata,40.1629,-8.3327,22.73,48,97,2.88,PT,1712770097
284,oum hadjer,13.2954,19.6966,36.33,8,49,3.04,TD,1712770097
285,orkney,-26.9802,26.6727,17.56,37,0,3.32,ZA,1712770098
286,narasannapeta,18.4167,84.05,26.95,69,5,1.5,IN,1712770098
287,mcalester,34.9334,-95.7697,14.05,88,100,5.14,US,1712770098
288,greymouth,-42.4667,171.2,15.31,95,100,4.95,NZ,1712770098
289,maryborough,-25.5333,152.7,16.73,75,0,1.92,AU,1712770098
290,villa gesell,-37.2639,-56.973,16.7,60,100,7.78,AR,1712769909
291,vadso,70.0744,29.7487,3.49,93,75,4.63,NO,1712770099
292,pamandzi,-12.7967,45.2794,28.88,84,0,1.03,YT,1712770099
293,sittwe,20.15,92.9,27.86,67,0,3.69,MM,1712770099
294,tual,-5.6667,132.75,28.48,73,100,4.1,ID,1712770099
295,flying fish cove,-10.4217,105.6791,25.82,83,40,3.6,CX,1712770100
296,lompoc,34.6391,-120.4579,22.66,57,0,2.06,US,1712770100
297,polyarnyy,69.1989,33.4478,3.1,99,100,5.91,RU,1712770100
298,digras,20.1167,77.7167,28.86,47,77,7.59,IN,1712770100
299,saudarkrokur,65.7461,-19.6394,1.64,81,57,0.15,IS,1712770100
300,guerrero negro,27.9769,-114.0611,21.0,45,0,2.73,MX,1712770101
301,lake city,30.1897,-82.6393,28.16,51,40,5.14,US,1712770101
302,yerofey pavlovich,53.9667,121.9667,-6.45,93,5,1.72,RU,1712770101
303,fougamou,-1.2154,10.5838,25.94,94,100,1.65,GA,1712770101
304,svetlyy,54.675,20.1347,10.2,77,100,7.04,RU,1712770101
305,nizhnyaya poyma,56.1622,97.1933,1.84,91,99,2.79,RU,1712770102
306,ketchikan,55.3422,-131.6461,5.99,87,100,5.66,US,1712770102
307,touros,-5.1989,-35.4608,29.86,68,97,2.06,BR,1712770102
308,st. john's,47.5649,-52.7093,2.21,66,75,7.72,CA,1712770007
309,strathalbyn,-35.2667,138.9,15.59,96,45,1.79,AU,1712770103
310,dera bugti,29.0307,69.151,29.82,11,0,1.6,PK,1712770103
311,saryozek,44.3583,77.9753,8.39,71,100,1.2,KZ,1712770103
312,petawawa,45.9001,-77.3328,17.66,44,40,3.6,CA,1712770103
313,branson,36.6437,-93.2185,16.3,96,100,3.09,US,1712769923
314,morehead city,34.7229,-76.726,26.01,71,0,5.66,US,1712770104
315,meadow lakes,61.6247,-149.6011,-0.61,91,100,2.06,US,1712770104
316,griffith,41.5284,-87.4237,19.08,51,0,2.06,US,1712770104
317,ust-nera,64.5667,143.2,-16.47,98,55,2.14,RU,1712770105
318,buncrana,55.1333,-7.45,13.87,93,100,6.36,IE,1712770105
319,kosong,38.3788,128.4676,16.27,75,100,3.3,KR,1712770105
320,isafjordur,66.0755,-23.124,3.02,70,20,2.06,IS,1712770105
321,nili,33.7218,66.1302,13.07,37,31,2.11,AF,1712770105
322,arno,60.1167,18.6333,7.1,61,71,9.77,SE,1712770106
323,sal rei,16.1833,-22.9167,25.11,57,40,6.69,CV,1712770106
324,newman,37.3138,-121.0208,21.24,71,85,1.79,US,1712770106
325,sandnessjoen,66.0217,12.6316,5.23,93,75,6.69,NO,1712770106
326,zaragoza,41.6561,-0.8773,20.27,28,0,14.4,ES,1712769970
327,aripuana,-9.1667,-60.6333,32.46,59,97,0.92,BR,1712770107
328,mount gambier,-37.8333,140.7667,13.66,69,83,2.21,AU,1712770107
329,kimbe,-5.5502,150.1429,24.42,98,100,0.87,PG,1712770107
330,ongjin,37.9347,125.3619,9.71,92,100,2.24,KP,1712770107
331,krivosheino,57.3431,83.9261,-6.43,85,79,2.49,RU,1712770108
332,taro,-8.3862,115.28,24.0,100,100,0.79,ID,1712770108
333,bardai,11.65,7.2333,37.05,13,40,5.4,NG,1712770108
334,poltavka,54.3663,71.7632,0.75,98,100,4.01,RU,1712770108
335,puerto baquerizo moreno,-0.9,-89.6,27.55,83,40,2.06,EC,1712770109
336,arapiraca,-9.7525,-36.6611,29.44,61,99,5.04,BR,1712770109
337,gamba,-2.65,10.0,26.87,87,93,2.29,GA,1712770109
338,namsos,64.4662,11.4957,5.03,87,75,7.72,NO,1712770109
339,ueda,36.4,138.2667,6.32,71,91,2.36,JP,1712770109
340,spas-klepiki,55.1347,40.1767,16.07,89,32,1.76,RU,1712770110
341,tughyl,47.7252,84.2063,5.1,92,100,1.42,KZ,1712770110
342,ibshaway,29.358,30.6814,23.58,34,2,3.89,EG,1712770110
343,rojhan,28.6868,69.9534,32.36,10,0,2.8,PK,1712769855
344,papayal,-4.0761,-80.7361,30.96,53,92,2.94,PE,1712770110
345,miles city,46.4083,-105.8406,6.54,61,100,11.83,US,1712770111
346,chonchi,-42.6128,-73.8092,13.56,49,9,1.96,CL,1712770111
347,codrington,-38.2667,141.9667,14.82,72,100,5.24,AU,1712770111
348,tsiombe,-25.3,45.4833,25.72,70,93,5.94,MG,1712770111
349,feijo,-8.1642,-70.3536,25.11,97,87,1.8,BR,1712770112
350,las tablas,7.7667,-80.2833,33.43,99,91,3.97,PA,1712770112
351,vanersborg,58.3807,12.3234,8.81,70,3,9.77,SE,1712770112
352,santa cruz,-17.8,-63.1667,31.03,66,40,7.2,BO,1712769904
353,freeport,40.6576,-73.5832,17.48,73,75,3.6,US,1712770023
354,dwarka,22.2394,68.9678,26.27,73,41,5.3,IN,1712770113
355,dalbandin,28.8947,64.4101,28.04,14,61,2.59,PK,1712769856
356,bamboo flat,11.7,92.7167,29.05,89,20,1.03,IN,1712770113
357,olinda,-8.0089,-34.8553,29.85,79,75,4.63,BR,1712770113
358,narvik,68.4384,17.4272,5.77,97,100,2.13,NO,1712770113
359,ermelo,-26.5333,29.9833,13.23,56,11,1.98,ZA,1712770114
360,amqui,48.4638,-67.4313,7.7,44,1,3.0,CA,1712770114
361,bucsani,44.8667,25.65,16.77,38,11,2.59,RO,1712770114
362,tera,14.0078,0.7531,40.89,15,57,2.48,NE,1712770114
363,hami,42.8,93.45,15.4,39,80,2.47,CN,1712770115
364,segezha,63.7415,34.3222,5.03,95,100,6.62,RU,1712770115
365,broome,42.2506,-75.833,15.81,89,100,3.13,US,1712770115
366,aljezur,37.3191,-8.8033,20.71,51,100,1.69,PT,1712770115
367,ghadamis,30.1337,9.5007,28.44,18,99,9.3,LY,1712770115
368,laojunmiao,39.8333,97.7333,11.71,10,65,3.15,CN,1712770116
369,hansi,29.1,75.9667,28.89,10,7,3.75,IN,1712770116
370,maragogi,-9.0122,-35.2225,30.13,64,73,4.33,BR,1712769848
371,hadibu,12.65,54.0333,27.62,73,6,3.07,YE,1712770116
372,selfoss,63.9331,-20.9971,5.63,62,100,3.6,IS,1712770116
373,lichtenburg,-26.152,26.1597,15.13,52,0,3.57,ZA,1712770117
374,mili,6.0815,171.735,27.97,84,100,9.21,MH,1712770117
375,tshikapa,-6.4167,20.8,27.14,67,41,0.69,CD,1712770117
376,khor,47.8861,134.9464,3.21,52,79,2.38,RU,1712770117
377,cockburn town,21.4612,-71.1419,25.49,63,27,8.96,TC,1712769862
378,gadzhiyevo,69.2551,33.3362,3.22,99,100,6.39,RU,1712770117
379,markovo,57.3206,107.0881,3.04,98,100,2.57,RU,1712770118
380,dubbo,-32.25,148.6167,7.07,87,0,2.57,AU,1712769953
381,huinan,42.6225,126.2614,9.96,73,100,6.01,CN,1712770118
382,gagarin,55.5529,34.9954,17.85,77,21,3.19,RU,1712770118
383,tamanrasset,22.785,5.5228,31.95,9,41,5.14,DZ,1712770119
384,natal,-5.795,-35.2094,31.36,66,40,5.14,BR,1712769474
385,deyang,31.1302,104.382,16.68,82,100,1.26,CN,1712770119
386,qamdo,31.1667,97.2333,-2.02,86,96,2.22,CN,1712770119
387,recani,31.2846,-4.2688,28.83,4,0,4.5,MA,1712770119
388,inirida,3.8653,-67.9239,36.95,40,95,0.42,CO,1712770120
389,the pas,53.8251,-101.2541,10.01,66,100,5.14,CA,1712770120
390,chernyshevskiy,63.0128,112.4714,-9.54,92,100,5.21,RU,1712770120
391,camabatela,-8.1881,15.375,19.94,94,94,0.95,AO,1712770120
392,menongue,-14.6585,17.691,20.01,88,97,2.38,AO,1712770120
393,ladario,-19.0047,-57.6017,35.05,66,75,2.57,BR,1712770121
394,cassilandia,-19.1133,-51.7342,29.11,65,72,2.21,BR,1712770121
395,mazagao,-0.115,-51.2894,33.03,72,88,2.65,BR,1712770121
396,boden,65.8252,21.6886,3.0,100,100,4.89,SE,1712770121
397,college,64.8569,-147.8028,-0.11,74,20,0.0,US,1712770121
398,freetown,8.484,-13.2299,28.84,70,69,2.06,SL,1712770122
399,la ronge,55.1001,-105.2842,10.14,34,40,3.6,CA,1712770122
400,fort bragg,35.139,-79.006,23.08,64,100,5.14,US,1712770122
401,la junta,37.985,-103.5438,15.59,36,20,4.63,US,1712770122
402,vejle,55.7093,9.5357,9.92,75,85,6.59,DK,1712770122
403,sodra sandby,56.5667,16.6167,11.92,62,57,7.16,SE,1712770122
404,palanga,55.9175,21.0686,7.01,87,75,4.12,LT,1712770123
405,chakvi,41.7187,41.7335,11.99,87,75,0.0,GE,1712770123
406,pervomayskoye,43.919,46.7102,11.91,76,100,4.91,RU,1712770123
407,kiruna,67.8557,20.2251,-0.49,100,100,2.57,SE,1712770123
408,komsomol'skiy,43.9783,46.6985,12.11,73,100,5.0,RU,1712770123
409,mahajanga,-15.7167,46.3167,29.01,84,20,3.09,MG,1712770124
410,youghal,51.95,-7.8506,12.56,100,100,10.21,IE,1712770124
411,karungdong,5.8844,121.263,26.96,80,62,2.69,PH,1712770124
412,palmer,42.1584,-72.3287,19.35,40,100,2.57,US,1712769993
413,long xuyen,10.3833,105.4167,27.97,75,19,5.13,VN,1712769896
414,east london,-33.0153,27.9116,15.52,94,40,6.69,ZA,1712770125
415,yamada,39.4667,141.95,2.79,62,1,2.51,JP,1712770125
416,port-gentil,-0.7193,8.7815,25.98,89,40,4.12,GA,1712770125
417,bambui,-20.0064,-45.9769,29.54,50,19,0.88,BR,1712770125
418,shahrud,36.4182,54.9763,19.73,28,46,2.69,IR,1712770125
419,suva,-18.1416,178.4415,25.71,94,40,0.0,FJ,1712770126
420,mandiana,10.6333,-8.6833,31.72,48,92,5.53,GN,1712770126
421,horta,38.5333,-28.6333,16.12,97,75,8.49,PT,1712770126
422,ad dilam,23.9915,47.1627,28.23,47,100,3.64,SA,1712770126
423,quimili,-27.6333,-62.4167,18.64,95,100,7.66,AR,1712770126
424,callao,-12.0667,-77.15,26.16,65,0,3.6,PE,1712769886
425,nieuw amsterdam,5.8833,-55.0833,26.01,94,40,3.09,SR,1712770127
426,maysville,38.6412,-83.7444,17.88,88,100,4.63,US,1712770127
427,mahibadhoo,3.7833,72.9667,29.81,71,52,4.86,MV,1712770127
428,sao joao da barra,-21.6403,-41.0511,30.05,80,0,4.93,BR,1712770128
429,luba,3.4568,8.5547,26.94,81,91,3.46,GQ,1712770128
430,paramonga,-10.6667,-77.8333,24.0,77,53,3.45,PE,1712770128
431,okha,53.5739,142.9478,-4.3,92,42,3.58,RU,1712770128
432,tostado,-29.232,-61.7692,21.66,84,100,0.89,AR,1712770128
433,sweet home,44.3976,-122.7362,13.31,73,15,2.24,US,1712770128
434,camana,-16.6228,-72.7111,21.74,84,100,3.18,PE,1712770076
435,hoopstad,-27.8327,25.9083,17.55,39,0,3.01,ZA,1712770129
436,kerikeri,-35.2268,173.9474,21.06,90,100,6.88,NZ,1712770129
437,siyabuswa,-25.1132,29.0445,21.29,42,84,2.71,ZA,1712770129
438,green river,41.5286,-109.4662,9.22,44,27,7.51,US,1712770130
439,alaghsas,17.0187,8.0168,38.94,6,25,3.09,NE,1712770130
440,comilla,23.4578,91.2044,27.51,31,86,3.04,BD,1712770130
441,campo grande,-20.4428,-54.6464,30.75,58,75,4.12,BR,1712769919
442,juruti,-2.1522,-56.0922,30.47,71,57,1.21,BR,1712769893
443,launceston,-41.45,147.1667,9.63,87,0,3.6,AU,1712769944
444,guasave,25.5667,-108.45,28.22,16,0,1.8,MX,1712770131
445,meadow lake,34.8014,-106.5436,16.28,22,0,3.6,US,1712770131
446,yeppoon,-23.1333,150.7333,12.88,56,0,2.1,AU,1712770131
447,bereznik,62.8551,42.7072,2.87,100,100,3.11,RU,1712770131
448,mancio lima,-7.6142,-72.8958,33.04,58,40,2.57,BR,1712770131
449,zakynthos,37.7914,20.8953,18.69,68,0,0.0,GR,1712770132
450,kolonia town,6.964,158.206,29.0,84,100,2.57,FM,1712770132
451,schwaz,47.3391,11.7336,5.84,83,99,0.98,AT,1712770132
452,al bardiyah,31.7561,25.0865,17.64,66,94,6.58,LY,1712770132
453,kununurra,-15.7667,128.7333,17.99,77,25,0.0,AU,1712770063
454,vilyuysk,63.7553,121.6247,0.56,94,100,5.36,RU,1712770133
455,san carlos,9.6612,-68.5827,37.9,25,24,2.76,VE,1712769876
456,howard springs,-12.497,131.047,23.95,76,84,2.44,AU,1712770133
457,pontotoc,34.2479,-88.9987,18.78,94,100,5.54,US,1712770133
458,leibnitz,46.7816,15.5384,16.15,48,100,1.34,AT,1712770133
459,ma'rib,15.4591,45.3253,33.41,25,8,2.86,YE,1712770134
460,iwanai,42.9744,140.5089,1.02,75,26,2.37,JP,1712770134
461,palu,-0.8917,119.8707,24.32,99,100,0.92,ID,1712770134
462,benjamin constant,-4.3831,-70.0311,27.07,89,75,0.51,BR,1712770134
463,nogliki,51.8333,143.1667,-1.48,87,27,3.58,RU,1712770134
464,baraki barak,33.9675,68.9486,13.83,53,60,1.27,AF,1712770135
465,ara nova,41.9273,12.2397,15.87,55,0,3.09,IT,1712770135
466,turpan,42.9333,89.1667,18.13,30,25,1.11,CN,1712770135
467,primero de mayo,-32.2552,-58.4228,21.01,74,100,7.35,AR,1712770135
468,sanctuary point,-35.1114,150.629,15.97,85,9,3.15,AU,1712770135
469,sarmiento,-45.5882,-69.07,10.78,44,0,2.34,AR,1712769973
470,atlantic beach,30.3344,-81.3987,27.9,64,75,7.72,US,1712770136
471,mendoza,-32.8908,-68.8272,13.74,51,75,7.2,AR,1712769954
472,undurkhaan,47.3194,110.6556,9.18,41,82,4.01,MN,1712770136
473,nacala,-14.5428,40.6728,27.04,81,98,2.77,MZ,1712770136
474,calama,-22.4667,-68.9333,24.27,19,0,8.23,CL,1712769709
475,mahdishahr,35.7108,53.3556,18.01,27,62,4.25,IR,1712770137
476,kaiapoi,-43.3783,172.6401,20.19,62,20,7.72,NZ,1712770021
477,qui nhon,13.7667,109.2333,23.85,93,4,2.41,VN,1712770137
478,richards bay,-28.783,32.0377,23.14,68,0,7.36,ZA,1712770137
479,san antonio de pale,-1.4014,5.6325,28.42,79,93,4.35,GQ,1712770137
480,brooks,50.5834,-111.8851,7.79,49,0,7.2,CA,1712770138
481,novyy urengoy,66.0833,76.6333,-27.31,100,20,2.81,RU,1712770138
482,tralee,52.2704,-9.7026,14.14,94,100,7.72,IE,1712770138
483,fortaleza,-3.7227,-38.5247,30.07,70,75,4.12,BR,1712769800
484,khmelnytskyi,49.4216,26.9965,17.86,46,80,2.3,UA,1712770138
485,illizi,26.4833,8.4667,35.89,6,98,5.77,DZ,1712770138
486,kone,-21.0595,164.8658,24.26,96,100,1.07,NC,1712770139
487,kill devil hills,36.0307,-75.676,24.01,58,0,4.63,US,1712770139
488,tobelo,1.7284,128.0095,26.11,83,33,2.58,ID,1712770139
489,port blair,11.6667,92.75,29.02,89,20,1.03,IN,1712770139
490,dolzhanskaya,46.6311,37.8039,14.88,64,0,6.47,RU,1712770139
491,al qusayr,34.5091,36.5798,14.13,79,85,2.51,SY,1712770140
492,rehoboth,-23.3167,17.0833,22.78,24,0,5.07,NA,1712770140
493,sierra vista,31.5545,-110.3037,20.22,18,0,3.09,US,1712770038
494,hailun,47.45,126.9333,7.54,47,10,3.55,CN,1712770140
495,nangomba,-10.9,38.5,24.71,91,95,1.38,TZ,1712770140
496,margarita belen,-27.2616,-58.9722,24.01,89,99,3.81,AR,1712770140
497,dondo,-19.6094,34.7431,27.73,89,100,2.46,MZ,1712770141
498,knyaze-volkonskoye,48.4642,135.4567,6.67,49,100,4.02,RU,1712770141
499,manado,1.487,124.8455,24.43,94,20,0.51,ID,1712770141
500,fuling,29.7022,107.3919,16.83,93,97,1.11,CN,1712769846
501,al muwayh,22.4333,41.7583,28.65,14,58,7.17,SA,1712770142
502,sinop,41.7711,34.8709,10.55,81,100,0.98,TR,1712769874
503,kavaratti,10.5669,72.642,28.9,70,5,3.21,IN,1712770142
504,saint-joseph,-21.3667,55.6167,25.21,83,81,3.25,RE,1712770142
505,pahrump,36.2083,-115.9839,21.29,28,6,1.34,US,1712770035
506,utrik,11.2278,169.8474,26.59,81,100,10.57,MH,1712770143
507,ust-tsilma,65.441,52.1498,-1.88,91,100,0.89,RU,1712770143
508,askoy,60.4092,5.226,8.31,100,75,5.66,NO,1712770143
509,ad dawadimi,24.5077,44.3924,25.64,47,77,4.2,SA,1712770143
510,villa union,23.2,-106.2333,23.98,46,0,0.0,MX,1712770144
511,portstewart,55.1813,-6.714,13.83,85,100,8.7,GB,1712770144
512,herval,-32.0236,-53.3956,22.63,79,100,4.45,BR,1712770144
513,turkmenbasy,40.0222,52.9552,22.43,24,0,6.17,TM,1712770144
514,kantang,7.4054,99.5156,26.66,78,100,1.76,TH,1712770145
515,fauske,67.2588,15.3918,6.02,100,100,2.16,NO,1712770145
516,colonia,50.9333,6.95,16.09,41,0,2.06,DE,1712769974
517,xunchang,28.4543,104.715,15.73,89,92,0.01,CN,1712770145
518,nouna,12.7333,-3.8667,38.72,19,64,6.14,BF,1712770145
519,hovd,48.0056,91.6419,7.17,37,100,4.89,MN,1712770146
520,ogdensburg,44.6942,-75.4863,19.09,69,75,7.72,US,1712770098
521,zouerate,22.7187,-12.4521,35.49,10,0,2.88,MR,1712770146
522,tuba city,36.135,-111.2399,16.32,27,0,3.27,US,1712770146
523,sault ste. marie,46.5168,-84.3333,17.16,45,75,4.63,CA,1712770012
524,la'ie,21.6477,-157.9253,24.98,73,17,1.79,US,1712770147
525,manismata,-2.4667,111.0333,23.99,98,100,0.62,ID,1712770147
526,belel,7.05,14.4333,24.83,42,89,0.55,CM,1712770147
527,sanibel,26.449,-82.0223,31.12,61,65,8.46,US,1712769848
528,nikol'sk,53.7189,46.0712,10.37,83,25,2.43,RU,1712770147
529,soio,-6.1349,12.3689,27.91,85,39,4.08,AO,1712770147
530,seryshevo,51.0933,128.3786,2.53,68,9,1.31,RU,1712770148
531,santa marinella,42.0345,11.8536,14.95,83,40,6.09,IT,1712770148
532,rongelap,11.1635,166.8941,26.85,83,100,9.93,MH,1712770148
533,ghat,24.9647,10.1728,28.8,21,97,2.51,LY,1712770148
534,portland,45.5234,-122.6762,12.71,74,57,1.79,US,1712769912
535,axim,4.8699,-2.2405,29.53,73,100,4.64,GH,1712770149
536,makar'yev,57.8797,43.8069,10.38,71,25,1.64,RU,1712770149
537,basiawan,6.5342,125.4869,25.88,80,78,4.09,PH,1712770149
538,biltine,14.5333,20.9167,34.16,7,28,4.5,TD,1712770149
539,namdrik,5.5994,168.1028,27.94,82,100,8.78,MH,1712770149
540,watsa,3.0372,29.5355,21.37,77,82,1.47,CD,1712770150
541,syktyvkar,61.6764,50.8099,4.85,75,40,0.0,RU,1712770048
542,barra de santo antonio,-9.4047,-35.5072,30.6,70,56,3.94,BR,1712770150
543,sirte,31.2089,16.5887,19.02,57,0,4.5,LY,1712770150
544,kamaishi,39.2667,141.8833,4.35,65,9,3.18,JP,1712770150
545,puerto carreno,6.189,-67.4859,35.99,41,47,3.6,CO,1712770151
546,lae,-6.7221,146.9847,24.0,83,99,2.41,PG,1712770151
547,vila velha,-20.3297,-40.2925,29.97,85,40,5.66,BR,1712769600
548,macusani,-14.0833,-70.4333,12.19,52,62,5.03,PE,1712770151
549,mana,5.6592,-53.7767,27.71,82,88,5.43,GF,1712770151
550,apolinario saravia,-24.4328,-63.9954,21.17,93,100,5.55,AR,1712770152
551,khandyga,62.6667,135.6,-7.28,97,100,1.46,RU,1712770152
552,port hueneme,34.1478,-119.1951,26.95,41,0,1.54,US,1712770152
553,kaga bandoro,6.9896,19.1874,33.49,23,61,2.07,CF,1712770152
554,necochea,-38.5473,-58.7368,15.36,41,99,7.15,AR,1712770153
555,mwinilunga,-11.7358,24.4293,19.46,95,67,1.21,ZM,1712770153
556,isangel,-19.55,169.2667,25.79,91,62,1.48,VU,1712770153
557,ciudad general teran,25.2667,-99.6833,30.25,10,0,4.39,MX,1712770153
558,moama,-36.1167,144.7833,9.99,83,0,4.6,AU,1712770153
559,grand gaube,-20.0064,57.6608,26.88,83,70,1.79,MU,1712770154
560,praia,14.9215,-23.5087,26.3,50,20,10.29,CV,1712769903
561,morondava,-20.2833,44.2833,27.67,75,96,3.74,MG,1712770154
562,santa ana,33.7456,-117.8678,26.89,37,0,1.34,US,1712769657
563,al ghayzah,16.2079,52.176,27.42,69,3,5.06,YE,1712770154
564,pipraich,26.8264,83.53,27.02,11,15,2.75,IN,1712770155
565,sorsk,54.0033,90.2467,2.61,98,100,1.18,RU,1712770155
566,kalaleh,37.3807,55.4916,15.78,82,100,2.06,IR,1712770155
567,as sulayyil,20.4607,45.5779,32.14,28,82,5.65,SA,1712770155
568,butembo,0.15,29.2833,15.67,97,55,0.78,CD,1712770155
569,santa vitoria,-18.8386,-50.1214,28.18,67,41,3.16,BR,1712769978
570,mokhsogollokh,61.4681,128.9203,-0.99,84,100,1.08,RU,1712770156
571,tocopilla,-22.092,-70.1979,22.0,75,83,3.87,CL,1712770156
572,paola,39.3599,16.0396,16.5,74,95,3.12,IT,1712770156
573,nabire,-3.3667,135.4833,24.04,98,100,0.91,ID,1712770157
574,gaspe,48.8334,-64.4819,3.12,56,20,6.17,CA,1712770142
575,christchurch,-43.5333,172.6333,23.08,62,20,7.72,NZ,1712770152
576,khagrachhari,23.1,91.9667,23.94,32,8,1.37,BD,1712770157
577,ladan,50.5196,32.5818,19.74,47,2,1.72,UA,1712770158
578,aracuai,-16.8497,-42.0703,32.8,47,65,0.39,BR,1712770158
579,groningen,53.25,6.75,13.42,53,59,4.63,NL,1712770158
580,labrador city,52.9463,-66.9114,1.95,38,0,2.57,CA,1712770158
581,tercan,39.7794,40.3925,8.83,75,100,2.09,TR,1712770159
582,lagarto,-10.9172,-37.65,32.73,45,93,5.58,BR,1712770159
583,mora,11.0461,14.1401,36.64,5,85,4.45,CM,1712770159
584,atherton,53.5237,-2.4935,15.2,88,100,0.89,GB,1712770159
585,benguela,-12.5763,13.4055,26.32,79,24,3.24,AO,1712770160
586,sho'rchi,38.0141,67.7899,19.53,45,3,1.73,UZ,1712770160
587,qarah bagh,34.9402,61.7759,14.81,55,13,3.05,AF,1712770160
588,kuanda,56.3161,116.0806,-8.86,83,56,0.93,RU,1712770160
589,valence,39.4697,-0.3774,23.3,43,0,4.63,ES,1712770160
590,novaya igirma,57.1334,103.9112,2.93,98,100,2.92,RU,1712770161
591,sheridan,44.8333,-106.9173,8.21,51,20,10.29,US,1712770161
592,putla villa de guerrero,17.0333,-97.9333,33.74,27,83,2.8,MX,1712770161
593,lewistown,40.5992,-77.5714,20.66,83,75,0.0,US,1712770161
594,antofagasta,-23.65,-70.4,21.6,74,92,3.53,CL,1712770095
595,zimovniki,47.1483,42.4633,17.97,57,100,3.59,RU,1712770161
596,camarinas,43.1311,-9.1817,18.85,63,100,4.05,ES,1712770162
597,eyl,7.9803,49.8164,27.91,69,83,6.58,SO,1712770162
598,cidreira,-30.1811,-50.2056,24.03,74,81,4.87,BR,1712770162
599,hobyo,5.3505,48.5268,28.92,66,24,5.88,SO,1712770162
600,igbeti,8.75,4.1333,30.62,52,99,3.33,NG,1712770162
601,huarmey,-10.0681,-78.1522,24.89,75,44,3.46,PE,1712770163
602,alzamay,55.5562,98.6644,2.51,97,100,2.43,RU,1712770163
603,alo,7.4178,6.7371,36.8,31,85,2.65,NG,1712770163
604,nantucket,41.2835,-70.0995,13.08,79,0,7.72,US,1712769864
605,kamen,51.6,7.6667,15.2,53,0,4.12,DE,1712770163
